{
 "slug": "anyang",
 "name": "안양시",
 "region": "경기도",
 "headline": "안양시 기억궁전",
 "intro": "내부 방은 렌더링하지 않고, 실제 3D 지도 배경 위에 명소 마커를 얹습니다.",
 "center": {
  "lat": 37.40283,
  "lon": 126.92276,
  "zoom": 12
 },
 "landmarks": [
  {
   "name": "안양예술공원",
   "desc": "계곡을 따라 현대 미술 조형물이 놓인 공원.",
   "h": 12,
   "lon": 126.91465,
   "lat": 37.416667
  },
  {
   "name": "평촌중앙공원",
   "desc": "평촌신도시 한가운데의 대형 도심 공원.",
   "h": 12,
   "lon": 126.961306,
   "lat": 37.390125
  },
  {
   "name": "삼성산",
   "desc": "관악산 자락에 이어진 도심 인기 산행지.",
   "h": 12,
   "lon": 126.917008,
   "lat": 37.41816
  },
  {
   "name": "만안교",
   "desc": "정조의 능행 길에 놓인 조선 시대 홍예 돌다리.",
   "h": 12,
   "lon": 126.911872,
   "lat": 37.409064
  },
  {
   "name": "병목안시민공원",
   "desc": "옛 채석장을 단장한 폭포·잔디 공원.",
   "h": 12,
   "lon": 126.909128,
   "lat": 37.384722
  },
  {
   "name": "김중업건축박물관",
   "desc": "건축가 김중업과 안양사지를 함께 보는 박물관.",
   "h": 12,
   "lon": 126.917844,
   "lat": 37.417745
  },
  {
   "name": "안양박물관",
   "desc": "안양의 역사와 유물을 모은 종합 박물관.",
   "h": 12,
   "lon": 126.918244,
   "lat": 37.417478
  },
  {
   "name": "수리산도립공원",
   "desc": "안양·군포에 걸친 진달래 명산.",
   "h": 12,
   "lon": 126.911803,
   "lat": 37.377743
  },
  {
   "name": "안양천",
   "desc": "벚꽃과 자전거길로 사랑받는 도심 하천.",
   "h": 12,
   "lon": 126.905632,
   "lat": 37.406543
  },
  {
   "name": "학운공원",
   "desc": "수리산 자락의 한적한 근린 공원.",
   "h": 12,
   "lon": 126.944394,
   "lat": 37.397301
  }
 ]
}