{
 "slug": "chungju",
 "name": "충주시",
 "region": "충청북도",
 "headline": "충주시 기억궁전",
 "intro": "내부 방은 렌더링하지 않고, 실제 3D 지도 배경 위에 명소 마커를 얹습니다.",
 "center": {
  "lat": 36.98469,
  "lon": 127.94777,
  "zoom": 12
 },
 "landmarks": [
  {
   "name": "충주호(충주댐)",
   "desc": "유람선이 오가는 거대한 인공 호수.",
   "h": 12,
   "lon": 128.089592,
   "lat": 36.980017
  },
  {
   "name": "탄금대",
   "desc": "신립 장군이 배수진을 친 임진왜란 전적지.",
   "h": 12,
   "lon": 127.900634,
   "lat": 36.989366
  },
  {
   "name": "중앙탑(탑평리 칠층석탑)",
   "desc": "남한강변에 선 국보 통일신라 석탑.",
   "h": 12,
   "lon": 127.866615,
   "lat": 37.015894
  },
  {
   "name": "수안보온천",
   "desc": "오랜 역사를 지닌 충북의 대표 온천.",
   "h": 12,
   "lon": 127.990876,
   "lat": 36.846958
  },
  {
   "name": "충주 미륵대원지·하늘재",
   "desc": "석불과 옛 고갯길이 남은 사찰 유적.",
   "h": 12,
   "lon": 128.095077,
   "lat": 36.821826
  },
  {
   "name": "활옥동굴",
   "desc": "옛 활석 광산을 개방한 동굴 체험지.",
   "h": 12,
   "lon": 127.925022,
   "lat": 36.972694
  },
  {
   "name": "계명산 자연휴양림",
   "desc": "충주호를 굽어보는 숲속 휴양림.",
   "h": 12,
   "lon": 127.995087,
   "lat": 36.979317
  },
  {
   "name": "종댕이길",
   "desc": "충주호반을 따라 걷는 둘레길.",
   "h": 12,
   "lon": 127.980746,
   "lat": 36.972918
  },
  {
   "name": "비내섬",
   "desc": "갈대밭과 철새로 유명한 남한강 섬.",
   "h": 12,
   "lon": 127.817726,
   "lat": 37.107632
  },
  {
   "name": "앙성탄산온천",
   "desc": "피부에 좋다는 탄산 온천 휴양지.",
   "h": 12,
   "lon": 127.797188,
   "lat": 37.093831
  }
 ]
}