{
 "slug": "daegu",
 "name": "대구광역시",
 "region": "광역시",
 "headline": "대구광역시 기억궁전",
 "intro": "내부 방은 렌더링하지 않고, 실제 3D 지도 배경 위에 명소 마커를 얹습니다.",
 "center": {
  "lat": 35.85263,
  "lon": 128.58721,
  "zoom": 12
 },
 "landmarks": [
  {
   "name": "김광석 다시그리기길",
   "desc": "가수 김광석을 추모하는 벽화와 음악이 흐르는 골목.",
   "h": 12,
   "lon": 128.606953,
   "lat": 35.860285
  },
  {
   "name": "서문시장",
   "desc": "대구를 대표하는 대형 전통시장이자 야시장 명소.",
   "h": 12,
   "lon": 128.580773,
   "lat": 35.868909
  },
  {
   "name": "동성로",
   "desc": "대구의 심장부에 해당하는 최대 번화가.",
   "h": 12,
   "lon": 128.596778,
   "lat": 35.870251
  },
  {
   "name": "이월드(83타워)",
   "desc": "놀이공원과 전망 타워가 결합된 도심 명소.",
   "h": 12,
   "lon": 128.566691,
   "lat": 35.853168
  },
  {
   "name": "팔공산·갓바위",
   "desc": "소원을 들어준다는 영험한 기도처로 알려진 명산.",
   "h": 12,
   "lon": 128.72618,
   "lat": 35.971159
  },
  {
   "name": "앞산공원·전망대",
   "desc": "도심 야경을 한눈에 담을 수 있는 산상 전망지.",
   "h": 12,
   "lon": 128.587656,
   "lat": 35.827203
  },
  {
   "name": "청라언덕(근대골목)",
   "desc": "선교사 주택과 3·1운동 길이 남은 근대 역사 골목.",
   "h": 12,
   "lon": 128.58525,
   "lat": 35.866801
  },
  {
   "name": "수성못",
   "desc": "도심 속 호수를 따라 카페와 분수쇼가 펼쳐지는 유원지.",
   "h": 12,
   "lon": 128.617276,
   "lat": 35.827702
  },
  {
   "name": "대구약령시",
   "desc": "조선시대부터 이어진 한약재 전통 시장.",
   "h": 12,
   "lon": 128.589908,
   "lat": 35.868516
  },
  {
   "name": "비슬산",
   "desc": "봄이면 참꽃(진달래) 군락이 능선을 뒤덮는 명산.",
   "h": 12,
   "lon": 128.523245,
   "lat": 35.715611
  }
 ]
}