{
 "slug": "dongducheon",
 "name": "동두천시",
 "region": "경기도",
 "headline": "동두천시 기억궁전",
 "intro": "내부 방은 렌더링하지 않고, 실제 3D 지도 배경 위에 명소 마커를 얹습니다.",
 "center": {
  "lat": 37.91707,
  "lon": 127.079,
  "zoom": 12
 },
 "landmarks": [
  {
   "name": "소요산",
   "desc": "단풍과 기암으로 '경기의 소금강'이라 불리는 산.",
   "h": 12,
   "lon": 127.087942,
   "lat": 37.938511
  },
  {
   "name": "자재암",
   "desc": "소요산 계곡에 자리한 신라 고찰.",
   "h": 12,
   "lon": 127.084729,
   "lat": 37.945361,
   "approx": true
  },
  {
   "name": "자유수호평화박물관",
   "desc": "한국전쟁과 참전을 기리는 안보 박물관.",
   "h": 12,
   "lon": 127.066097,
   "lat": 37.942484
  },
  {
   "name": "니지모리스튜디오",
   "desc": "일본 전통 거리를 재현한 촬영·체험 공간.",
   "h": 12,
   "lon": 127.092002,
   "lat": 37.879202
  },
  {
   "name": "경기북부어린이박물관",
   "desc": "체험형 전시를 갖춘 어린이 박물관.",
   "h": 12,
   "lon": 127.064393,
   "lat": 37.944764
  },
  {
   "name": "왕방산",
   "desc": "도심을 굽어보는 동두천의 진산.",
   "h": 12,
   "lon": 127.150877,
   "lat": 37.897139
  },
  {
   "name": "마차산",
   "desc": "한탄강을 굽어보는 능선 산행지.",
   "h": 12,
   "lon": 127.027064,
   "lat": 37.943098
  },
  {
   "name": "칠봉산",
   "desc": "일곱 봉우리가 이어진 가벼운 산행지.",
   "h": 12,
   "lon": 127.093888,
   "lat": 37.87106
  },
  {
   "name": "보산동 관광특구",
   "desc": "외국인 거리로 알려진 이국적 상권.",
   "h": 12,
   "lon": 127.056625,
   "lat": 37.919082,
   "approx": true
  },
  {
   "name": "동두천자연휴양림",
   "desc": "왕방산 자락의 숲속 휴양 시설.",
   "h": 12,
   "lon": 127.137193,
   "lat": 37.889898
  }
 ]
}