{
 "slug": "geoje",
 "name": "거제시",
 "region": "경상남도",
 "headline": "거제시 기억궁전",
 "intro": "내부 방은 렌더링하지 않고, 실제 3D 지도 배경 위에 명소 마커를 얹습니다.",
 "center": {
  "lat": 34.7755,
  "lon": 128.65839,
  "zoom": 12
 },
 "landmarks": [
  {
   "name": "외도 보타니아",
   "desc": "바다 위 식물 정원으로 꾸민 섬.",
   "h": 12,
   "lon": 128.711765,
   "lat": 34.770456
  },
  {
   "name": "바람의언덕·신선대",
   "desc": "해안 언덕과 절벽이 어우러진 절경.",
   "h": 12,
   "lon": 128.663495,
   "lat": 34.739836
  },
  {
   "name": "학동흑진주몽돌해변",
   "desc": "검은 몽돌이 깔린 해변.",
   "h": 12,
   "lon": 128.641526,
   "lat": 34.774668
  },
  {
   "name": "해금강",
   "desc": "십자동굴로 유명한 해상 명승.",
   "h": 12,
   "lon": 128.676606,
   "lat": 34.737769
  },
  {
   "name": "거제 포로수용소유적공원",
   "desc": "한국전쟁의 역사를 보여주는 공원.",
   "h": 12,
   "lon": 128.624267,
   "lat": 34.875855
  },
  {
   "name": "매미성",
   "desc": "한 시민이 손수 쌓아 올린 이색 성벽.",
   "h": 12,
   "lon": 128.703897,
   "lat": 34.966145
  },
  {
   "name": "거제 파노라마케이블카",
   "desc": "한려수도를 굽어보는 케이블카.",
   "h": 12,
   "lon": 128.633002,
   "lat": 34.7843,
   "approx": true
  },
  {
   "name": "공곶이",
   "desc": "수선화와 동백으로 가꾼 해안 농원.",
   "h": 12,
   "lon": 128.714834,
   "lat": 34.799821
  },
  {
   "name": "여차·홍포 해안도로",
   "desc": "다도해 절경을 따라 달리는 드라이브 길.",
   "h": 12,
   "lon": 128.625519,
   "lat": 34.726808
  },
  {
   "name": "우제봉·도장포",
   "desc": "바람의언덕 곁 해안 절경 명소.",
   "h": 12,
   "lon": 128.674419,
   "lat": 34.736292
  }
 ]
}