{
 "slug": "gimcheon",
 "name": "김천시",
 "region": "경상북도",
 "headline": "김천시 기억궁전",
 "intro": "내부 방은 렌더링하지 않고, 실제 3D 지도 배경 위에 명소 마커를 얹습니다.",
 "center": {
  "lat": 36.10769,
  "lon": 128.01432,
  "zoom": 12
 },
 "landmarks": [
  {
   "name": "직지사",
   "desc": "황악산 자락에 자리한 천년 대찰.",
   "h": 12,
   "lon": 128.00515,
   "lat": 36.116528
  },
  {
   "name": "부항댐 출렁다리·짚라인",
   "desc": "호수 위를 가로지르는 출렁다리와 짚라인.",
   "h": 12,
   "lon": 127.999173,
   "lat": 35.980251
  },
  {
   "name": "청암사",
   "desc": "비구니 수행 도량으로 알려진 사찰.",
   "h": 12,
   "lon": 128.00798,
   "lat": 35.891472
  },
  {
   "name": "수도산·수도계곡",
   "desc": "맑은 물이 흐르는 명산 계곡.",
   "h": 12,
   "lon": 128.036063,
   "lat": 35.90124
  },
  {
   "name": "사명대사공원",
   "desc": "임진왜란 승병장 사명대사를 기리는 공원.",
   "h": 12,
   "lon": 128.009805,
   "lat": 36.117026
  },
  {
   "name": "연화지·봉황대",
   "desc": "봄 벚꽃으로 유명한 도심 연못.",
   "h": 12,
   "lon": 128.092737,
   "lat": 36.1375
  },
  {
   "name": "수도암",
   "desc": "고지대에 자리한 청암사의 산내 암자.",
   "h": 12,
   "lon": 127.997279,
   "lat": 35.861924,
   "approx": true
  },
  {
   "name": "김천 세계도자기박물관",
   "desc": "여러 나라의 도자기를 전시하는 박물관.",
   "h": 12,
   "lon": 128.011201,
   "lat": 36.116811,
   "approx": true
  },
  {
   "name": "황악산 하늘길",
   "desc": "능선을 따라 걷는 트레킹 코스.",
   "h": 12,
   "lon": 128.012996,
   "lat": 36.110798,
   "approx": true
  },
  {
   "name": "빗내농악 전수관",
   "desc": "국가무형유산 빗내농악을 잇는 공간.",
   "h": 12,
   "lon": 128.213272,
   "lat": 36.186832,
   "approx": true
  }
 ]
}