{
 "slug": "gwangmyeong",
 "name": "광명시",
 "region": "경기도",
 "headline": "광명시 기억궁전",
 "intro": "내부 방은 렌더링하지 않고, 실제 3D 지도 배경 위에 명소 마커를 얹습니다.",
 "center": {
  "lat": 37.4451,
  "lon": 126.86574,
  "zoom": 12
 },
 "landmarks": [
  {
   "name": "광명동굴",
   "desc": "폐광을 빛과 예술로 단장한 인기 동굴 테마파크.",
   "h": 12,
   "lon": 126.865736,
   "lat": 37.426463
  },
  {
   "name": "광명업사이클아트센터",
   "desc": "버려진 자원을 예술로 되살린 전시관.",
   "h": 12,
   "lon": 126.870355,
   "lat": 37.463725
  },
  {
   "name": "기형도문학관",
   "desc": "요절 시인 기형도를 기리는 문학관.",
   "h": 12,
   "lon": 126.881535,
   "lat": 37.426421
  },
  {
   "name": "충현박물관",
   "desc": "오리 이원익 종택을 보존한 사가 박물관.",
   "h": 12,
   "lon": 126.878215,
   "lat": 37.433564
  },
  {
   "name": "광명전통시장",
   "desc": "먹자골목으로 유명한 대형 전통시장.",
   "h": 12,
   "lon": 126.856165,
   "lat": 37.479949
  },
  {
   "name": "도덕산",
   "desc": "도심에 솟은 가벼운 산책 산.",
   "h": 12,
   "lon": 126.85722,
   "lat": 37.465467
  },
  {
   "name": "구름산",
   "desc": "광명의 진산으로 숲길이 좋은 산.",
   "h": 12,
   "lon": 126.866185,
   "lat": 37.440644
  },
  {
   "name": "가학산",
   "desc": "광명동굴이 자리한 산.",
   "h": 12,
   "lon": 126.867459,
   "lat": 37.428316
  },
  {
   "name": "광명스피돔",
   "desc": "경륜 경기가 열리는 돔형 경기장.",
   "h": 12,
   "lon": 126.845192,
   "lat": 37.466785
  },
  {
   "name": "안터생태공원",
   "desc": "도심 저수지를 살린 생태 학습 공원.",
   "h": 12,
   "lon": 126.870145,
   "lat": 37.458589
  }
 ]
}