{
 "slug": "gyeryong",
 "name": "계룡시",
 "region": "충청남도",
 "headline": "계룡시 기억궁전",
 "intro": "내부 방은 렌더링하지 않고, 실제 3D 지도 배경 위에 명소 마커를 얹습니다.",
 "center": {
  "lat": 36.31106,
  "lon": 127.22639,
  "zoom": 12
 },
 "landmarks": [
  {
   "name": "계룡산 신도안 터",
   "desc": "조선 천도 후보지로 거론되던 옛 도읍 터.",
   "h": 12,
   "lon": 127.181686,
   "lat": 36.332936,
   "approx": true
  },
  {
   "name": "계룡대 일원",
   "desc": "삼군 통합기지를 상징하는 군사 도시의 중심.",
   "h": 12,
   "lon": 127.237111,
   "lat": 36.306769,
   "approx": true
  },
  {
   "name": "계룡 군문화축제 거리",
   "desc": "군 도시 정체성을 살린 축제 무대.",
   "h": 12,
   "lon": 127.249775,
   "lat": 36.275696,
   "approx": true
  },
  {
   "name": "사계고택(김장생 유적)",
   "desc": "예학자 사계 김장생과 연관된 유적.",
   "h": 12,
   "lon": 127.271566,
   "lat": 36.265625
  },
  {
   "name": "계룡산 도예촌",
   "desc": "도예 공방이 모인 마을.",
   "h": 12,
   "lon": 127.215501,
   "lat": 36.389542,
   "needsReview": true
  },
  {
   "name": "향한리 무상사",
   "desc": "외국인 수행자가 많은 국제 선원.",
   "h": 12,
   "lon": 127.212324,
   "lat": 36.29164
  },
  {
   "name": "엄사 신도시 거리",
   "desc": "계획도시로 조성된 생활 중심지.",
   "h": 12,
   "lon": 127.239873,
   "lat": 36.288592,
   "approx": true
  },
  {
   "name": "계룡저수지",
   "desc": "낚시와 산책을 즐기는 호수.",
   "h": 12,
   "lon": 127.153724,
   "lat": 36.358223
  },
  {
   "name": "천황봉 자락 경관",
   "desc": "계룡산 주봉을 끼고 펼쳐지는 자연 경관.",
   "h": 12,
   "lon": 127.241642,
   "lat": 36.357686,
   "approx": true
  },
  {
   "name": "계룡 둘레길",
   "desc": "산자락을 따라 걷는 트레킹 코스.",
   "h": 12,
   "lon": 127.277686,
   "lat": 36.349113,
   "approx": true
  }
 ]
}