{
 "slug": "hwaseong",
 "name": "화성시",
 "region": "경기도",
 "headline": "화성시 기억궁전",
 "intro": "내부 방은 렌더링하지 않고, 실제 3D 지도 배경 위에 명소 마커를 얹습니다.",
 "center": {
  "lat": 37.20169,
  "lon": 126.95611,
  "zoom": 12
 },
 "landmarks": [
  {
   "name": "궁평항·궁평낙조",
   "desc": "낙조가 아름다운 서해의 항구.",
   "h": 12,
   "lon": 126.690822,
   "lat": 37.1211,
   "approx": true
  },
  {
   "name": "융건릉",
   "desc": "정조와 사도세자가 잠든 유네스코 세계유산 왕릉.",
   "h": 12,
   "lon": 126.984976,
   "lat": 37.210321
  },
  {
   "name": "용주사",
   "desc": "정조가 아버지를 기리며 세운 효찰(孝刹).",
   "h": 12,
   "lon": 127.005079,
   "lat": 37.212171
  },
  {
   "name": "전곡항",
   "desc": "요트와 마리나 시설을 갖춘 레저 항구.",
   "h": 12,
   "lon": 126.654574,
   "lat": 37.186946,
   "approx": true
  },
  {
   "name": "화성 공룡알화석지",
   "desc": "중생대 공룡알이 무더기로 발견된 천연기념물.",
   "h": 12,
   "lon": 126.765003,
   "lat": 37.260237,
   "approx": true
  },
  {
   "name": "송산그린시티 에코팜랜드",
   "desc": "넓은 들에 조성된 승마·체험 단지.",
   "h": 12,
   "lon": 126.768019,
   "lat": 37.164474,
   "approx": true
  },
  {
   "name": "동탄호수공원",
   "desc": "동탄신도시에 조성된 호수와 산책로.",
   "h": 12,
   "lon": 127.10243,
   "lat": 37.166896
  },
  {
   "name": "라비돌리조트",
   "desc": "온천과 골프를 함께 즐기는 복합 리조트.",
   "h": 12,
   "lon": 126.983224,
   "lat": 37.190291,
   "approx": true
  }
 ]
}