{
 "slug": "jecheon",
 "name": "제천시",
 "region": "충청북도",
 "headline": "제천시 기억궁전",
 "intro": "내부 방은 렌더링하지 않고, 실제 3D 지도 배경 위에 명소 마커를 얹습니다.",
 "center": {
  "lat": 37.06479,
  "lon": 128.16181,
  "zoom": 12
 },
 "landmarks": [
  {
   "name": "청풍호·청풍문화재단지",
   "desc": "수몰을 피해 옮겨 복원한 문화재와 호반.",
   "h": 12,
   "lon": 128.135061,
   "lat": 37.003115
  },
  {
   "name": "의림지",
   "desc": "삼한시대에 축조된 것으로 전하는 저수지.",
   "h": 12,
   "lon": 128.21012,
   "lat": 37.17106
  },
  {
   "name": "배론성지",
   "desc": "천주교 박해의 역사가 깃든 순교 성지.",
   "h": 12,
   "lon": 128.083864,
   "lat": 37.159524
  },
  {
   "name": "청풍호반 케이블카·비봉산",
   "desc": "호수를 굽어보는 케이블카 전망 명소.",
   "h": 12,
   "lon": 128.169708,
   "lat": 37.002601,
   "approx": true
  },
  {
   "name": "옥순봉·구담봉",
   "desc": "남한강 절경을 이루는 명승 봉우리.",
   "h": 12,
   "lon": 128.231857,
   "lat": 36.949273
  },
  {
   "name": "박달재",
   "desc": "'울고 넘는 박달재'로 알려진 고개.",
   "h": 12,
   "lon": 128.226378,
   "lat": 37.15952
  },
  {
   "name": "정방사",
   "desc": "절벽에 매달린 듯 자리한 청풍호변 사찰.",
   "h": 12,
   "lon": 128.207782,
   "lat": 36.998896
  },
  {
   "name": "제천 한방엑스포공원",
   "desc": "약초와 한방을 테마로 한 공원.",
   "h": 12,
   "lon": 128.160713,
   "lat": 37.142685,
   "approx": true
  },
  {
   "name": "탁사정",
   "desc": "계곡과 어우러진 정자 명승지.",
   "h": 12,
   "lon": 128.107576,
   "lat": 37.16336
  },
  {
   "name": "월악산(국립공원)",
   "desc": "영봉과 송계계곡을 품은 명산.",
   "h": 12,
   "lon": 128.106072,
   "lat": 36.885975
  }
 ]
}