{
 "slug": "namyangju",
 "name": "남양주시",
 "region": "경기도",
 "headline": "남양주시 기억궁전",
 "intro": "내부 방은 렌더링하지 않고, 실제 3D 지도 배경 위에 명소 마커를 얹습니다.",
 "center": {
  "lat": 37.55854,
  "lon": 127.29533,
  "zoom": 12
 },
 "landmarks": [
  {
   "name": "다산유적지",
   "desc": "실학자 정약용의 생가 여유당과 묘가 있는 유적지.",
   "h": 12,
   "lon": 127.299065,
   "lat": 37.516289
  },
  {
   "name": "다산생태공원",
   "desc": "한강 변 정약용을 테마로 한 생태 공원.",
   "h": 12,
   "lon": 127.297652,
   "lat": 37.513759
  },
  {
   "name": "국립수목원(광릉숲)",
   "desc": "유네스코 생물권보전지역 광릉숲의 국립수목원.",
   "h": 12,
   "lon": 127.176791,
   "lat": 37.756334
  },
  {
   "name": "물의정원",
   "desc": "북한강 변 강변 산책로와 양귀비·코스모스 꽃밭.",
   "h": 12,
   "lon": 127.314994,
   "lat": 37.556854
  },
  {
   "name": "수종사",
   "desc": "운길산 중턱에서 두물머리를 내려다보는 천년 고찰.",
   "h": 12,
   "lon": 127.302285,
   "lat": 37.57105
  },
  {
   "name": "홍유릉",
   "desc": "고종·순종 황제가 잠든 대한제국 황실 능.",
   "h": 12,
   "lon": 127.209337,
   "lat": 37.630623
  },
  {
   "name": "마재성지",
   "desc": "정약용 일가의 천주교 신앙이 깃든 순례 성지.",
   "h": 12,
   "lon": 127.296059,
   "lat": 37.521594
  },
  {
   "name": "피아노폭포",
   "desc": "별내신도시의 인공 폭포 야경 명소.",
   "h": 12,
   "lon": 127.347686,
   "lat": 37.630351
  },
  {
   "name": "능내역",
   "desc": "옛 중앙선 폐역을 단장한 자전거길 포토존.",
   "h": 12,
   "lon": 127.296266,
   "lat": 37.523644
  },
  {
   "name": "축령산자연휴양림",
   "desc": "잣나무 숲과 야영장을 갖춘 산림 휴양지.",
   "h": 12,
   "lon": 127.313159,
   "lat": 37.754607
  }
 ]
}