{
 "slug": "pocheon",
 "name": "포천시",
 "region": "경기도",
 "headline": "포천시 기억궁전",
 "intro": "내부 방은 렌더링하지 않고, 실제 3D 지도 배경 위에 명소 마커를 얹습니다.",
 "center": {
  "lat": 38.00508,
  "lon": 127.27988,
  "zoom": 12
 },
 "landmarks": [
  {
   "name": "산정호수",
   "desc": "명성산 자락을 비추는 그림 같은 호수.",
   "h": 12,
   "lon": 127.324856,
   "lat": 38.067922
  },
  {
   "name": "허브아일랜드",
   "desc": "지중해풍 허브 정원과 불빛 축제 명소.",
   "h": 12,
   "lon": 127.130918,
   "lat": 37.967876
  },
  {
   "name": "포천아트밸리",
   "desc": "버려진 채석장을 예술 공간으로 살린 명소.",
   "h": 12,
   "lon": 127.240532,
   "lat": 37.923089
  },
  {
   "name": "비둘기낭폭포",
   "desc": "한탄강 주상절리 협곡의 비경 폭포.",
   "h": 12,
   "lon": 127.218857,
   "lat": 38.078475
  },
  {
   "name": "국립수목원",
   "desc": "광릉숲에 자리한 국립 수목원.",
   "h": 12,
   "lon": 127.168915,
   "lat": 37.759546,
   "approx": true
  },
  {
   "name": "평강랜드",
   "desc": "고산 식물원과 암석원을 갖춘 생태 공원.",
   "h": 12,
   "lon": 127.302875,
   "lat": 38.050828
  },
  {
   "name": "명성산",
   "desc": "가을 억새 물결로 유명한 산정호수의 산.",
   "h": 12,
   "lon": 127.324032,
   "lat": 38.076438
  },
  {
   "name": "백운계곡",
   "desc": "여름 피서지로 사랑받는 맑은 계곡.",
   "h": 12,
   "lon": 127.41205,
   "lat": 38.073383
  },
  {
   "name": "산사원",
   "desc": "전통주 박물관과 정원을 갖춘 술 문화 공간.",
   "h": 12,
   "lon": 127.308805,
   "lat": 37.905919
  },
  {
   "name": "운악산",
   "desc": "기암 봉우리가 빼어난 포천의 명산.",
   "h": 12,
   "lon": 127.309311,
   "lat": 37.911206
  }
 ]
}