{
 "slug": "sangju",
 "name": "상주시",
 "region": "경상북도",
 "headline": "상주시 기억궁전",
 "intro": "내부 방은 렌더링하지 않고, 실제 3D 지도 배경 위에 명소 마커를 얹습니다.",
 "center": {
  "lat": 36.44293,
  "lon": 128.18943,
  "zoom": 12
 },
 "landmarks": [
  {
   "name": "경천대",
   "desc": "낙동강 절경을 굽어보는 전망대.",
   "h": 12,
   "lon": 128.244812,
   "lat": 36.456365
  },
  {
   "name": "상주 자전거박물관",
   "desc": "자전거 도시 상주를 상징하는 박물관.",
   "h": 12,
   "lon": 128.255068,
   "lat": 36.453219
  },
  {
   "name": "남장사",
   "desc": "노악산 자락의 유서 깊은 고찰.",
   "h": 12,
   "lon": 128.105993,
   "lat": 36.430854
  },
  {
   "name": "경천섬·낙강물길공원",
   "desc": "낙동강 가운데 자리한 섬 공원.",
   "h": 12,
   "lon": 128.259712,
   "lat": 36.439924
  },
  {
   "name": "외남 곶감마을",
   "desc": "곶감 산지로 유명한 농촌 마을.",
   "h": 12,
   "lon": 128.085955,
   "lat": 36.37519,
   "approx": true
  },
  {
   "name": "왕산공원(옛 상주읍성)",
   "desc": "도심 역사를 간직한 공원.",
   "h": 12,
   "lon": 128.162506,
   "lat": 36.41685,
   "approx": true
  },
  {
   "name": "갑장산·노음산",
   "desc": "상주를 대표하는 명산.",
   "h": 12,
   "lon": 128.188982,
   "lat": 36.347381
  },
  {
   "name": "상주박물관",
   "desc": "지역사를 보여주는 종합 박물관.",
   "h": 12,
   "lon": 128.241114,
   "lat": 36.459997
  },
  {
   "name": "함창 명주테마파크",
   "desc": "비단 산업을 테마로 한 공간.",
   "h": 12,
   "lon": 128.161973,
   "lat": 36.57744
  },
  {
   "name": "장각폭포(속리산 자락)",
   "desc": "기암과 어우러진 폭포 명승.",
   "h": 12,
   "lon": 127.917387,
   "lat": 36.542336,
   "approx": true
  }
 ]
}