{
 "slug": "seosan",
 "name": "서산시",
 "region": "충청남도",
 "headline": "서산시 기억궁전",
 "intro": "내부 방은 렌더링하지 않고, 실제 3D 지도 배경 위에 명소 마커를 얹습니다.",
 "center": {
  "lat": 36.73329,
  "lon": 126.48937,
  "zoom": 12
 },
 "landmarks": [
  {
   "name": "서산 마애여래삼존상",
   "desc": "'백제의 미소'로 불리는 국보 마애불.",
   "h": 12,
   "lon": 126.605174,
   "lat": 36.77387
  },
  {
   "name": "해미읍성",
   "desc": "조선 읍성이자 천주교 순교 성지.",
   "h": 12,
   "lon": 126.548216,
   "lat": 36.712655
  },
  {
   "name": "간월암",
   "desc": "물이 들면 섬이 되는 바다 위 암자.",
   "h": 12,
   "lon": 126.411145,
   "lat": 36.603741
  },
  {
   "name": "개심사",
   "desc": "왕벚꽃과 청벚꽃으로 유명한 고찰.",
   "h": 12,
   "lon": 126.590367,
   "lat": 36.746668
  },
  {
   "name": "황금산 코끼리바위",
   "desc": "코끼리를 닮은 바위가 있는 해안 명소.",
   "h": 12,
   "lon": 126.32785,
   "lat": 36.99182,
   "approx": true
  },
  {
   "name": "가야산",
   "desc": "서산과 예산을 가르는 명산.",
   "h": 12,
   "lon": 126.609428,
   "lat": 36.704328,
   "approx": true
  },
  {
   "name": "삼길포항",
   "desc": "우럭으로 유명한 작은 항구.",
   "h": 12,
   "lon": 126.45257,
   "lat": 37.000541,
   "approx": true
  },
  {
   "name": "서산버드랜드(천수만)",
   "desc": "철새 도래지를 관찰하는 생태 시설.",
   "h": 12,
   "lon": 126.378401,
   "lat": 36.631095
  },
  {
   "name": "용현자연휴양림",
   "desc": "마애불 인근의 숲속 휴양지.",
   "h": 12,
   "lon": 126.609594,
   "lat": 36.750442
  },
  {
   "name": "팔봉산",
   "desc": "여덟 봉우리가 이어지는 능선 산행지.",
   "h": 12,
   "lon": 126.371586,
   "lat": 36.809811
  }
 ]
}